{
"type": "FeatureCollection",
"name": "StrEmp",
"crs": { "type": "name", "properties": { "name": "urn:ogc:def:crs:OGC:1.3:CRS84" } },
"features": [
{ "type": "Feature", "properties": { "fid": 1, "FID_": 0, "NAME": "Bath Enterprise Area", "X_coord": 373946.82700699999, "Y_coord": 164818.075174, "COREID": 1, "Selected": 0.0, "Time": null }, "geometry": { "type": "Point", "coordinates": [ -2.375746870780962, 51.381807743439033 ] } },
{ "type": "Feature", "properties": { "fid": 2, "FID_": 1, "NAME": "Temple Quarter Enterprise Zone Extension", "X_coord": 360009.5579, "Y_coord": 172077.90146, "COREID": 2, "Selected": 0.0, "Time": 18.61 }, "geometry": { "type": "Point", "coordinates": [ -2.576824332107027, 51.446268195614131 ] } },
{ "type": "Feature", "properties": { "fid": 3, "FID_": 2, "NAME": "Temple Quarter Enterprise Zone", "X_coord": 359975.16066, "Y_coord": 172333.21894799999, "COREID": 3, "Selected": 0.0, "Time": 15.85 }, "geometry": { "type": "Point", "coordinates": [ -2.577348220489169, 51.448561340416028 ] } },
{ "type": "Feature", "properties": { "fid": 4, "FID_": 3, "NAME": "Parkway North Business Park", "X_coord": 363117.91752999998, "Y_coord": 179971.96754400001, "COREID": 4, "Selected": 0.0, "Time": null }, "geometry": { "type": "Point", "coordinates": [ -2.532926433778004, 51.517456161437714 ] } },
{ "type": "Feature", "properties": { "fid": 5, "FID_": 4, "NAME": "North of Douglas Road", "X_coord": 364792.43650800001, "Y_coord": 173459.87296000001, "COREID": 5, "Selected": 0.0, "Time": null }, "geometry": { "type": "Point", "coordinates": [ -2.508143191380243, 51.459012287717123 ] } },
{ "type": "Feature", "properties": { "fid": 6, "FID_": 5, "NAME": "Southway Drive, North Common", "X_coord": 367807.91651399998, "Y_coord": 172474.12703500001, "COREID": 6, "Selected": 0.0, "Time": null }, "geometry": { "type": "Point", "coordinates": [ -2.464652082053156, 51.450329358239898 ] } },
{ "type": "Feature", "properties": { "fid": 7, "FID_": 6, "NAME": "Station Road, Kingswood", "X_coord": 366079.29881200002, "Y_coord": 175168.29330700001, "COREID": 7, "Selected": 0.0, "Time": null }, "geometry": { "type": "Point", "coordinates": [ -2.489786267569289, 51.4744518552911 ] } },
{ "type": "Feature", "properties": { "fid": 8, "FID_": 7, "NAME": "Former Kleeneze site", "X_coord": 364059.472702, "Y_coord": 172258.35119399999, "COREID": 8, "Selected": 0.0, "Time": null }, "geometry": { "type": "Point", "coordinates": [ -2.518570014883142, 51.448162991337107 ] } },
{ "type": "Feature", "properties": { "fid": 9, "FID_": 8, "NAME": "Beeches Industrial Estate, Yate", "X_coord": 369653.97263199999, "Y_coord": 182905.73381199999, "COREID": 9, "Selected": 0.0, "Time": null }, "geometry": { "type": "Point", "coordinates": [ -2.438987795519109, 51.544224387289454 ] } },
{ "type": "Feature", "properties": { "fid": 10, "FID_": 9, "NAME": "Broad Lane, Yate", "X_coord": 370228.97351400001, "Y_coord": 183732.94606300001, "COREID": 10, "Selected": 0.0, "Time": null }, "geometry": { "type": "Point", "coordinates": [ -2.430766727901312, 51.551692709290592 ] } },
{ "type": "Feature", "properties": { "fid": 11, "FID_": 10, "NAME": "The Ridge, Yate", "X_coord": 372318.48146400001, "Y_coord": 183051.76521499999, "COREID": 11, "Selected": 0.0, "Time": null }, "geometry": { "type": "Point", "coordinates": [ -2.40057778404524, 51.545674917722657 ] } },
{ "type": "Feature", "properties": { "fid": 12, "FID_": 11, "NAME": "Council Offices, Thornbury", "X_coord": 363510.14315100003, "Y_coord": 190346.70403299999, "COREID": 12, "Selected": 0.0, "Time": null }, "geometry": { "type": "Point", "coordinates": [ -2.528354572658013, 51.610760790559887 ] } },
{ "type": "Feature", "properties": { "fid": 13, "FID_": 12, "NAME": "Badminton Court / Dairy Crest site", "X_coord": 370243.48114400002, "Y_coord": 182633.97290699999, "COREID": 13, "Selected": 0.0, "Time": null }, "geometry": { "type": "Point", "coordinates": [ -2.430464188071666, 51.541812459122994 ] } },
{ "type": "Feature", "properties": { "fid": 14, "FID_": 13, "NAME": "Hatters Lane", "X_coord": 373046.326894, "Y_coord": 182339.52694400001, "COREID": 14, "Selected": 0.0, "Time": null }, "geometry": { "type": "Point", "coordinates": [ -2.39002729597585, 51.539306432584475 ] } },
{ "type": "Feature", "properties": { "fid": 15, "FID_": 14, "NAME": "Minelco Site / Yate Mills, Broad Lane", "X_coord": 371044.227717, "Y_coord": 183889.002481, "COREID": 15, "Selected": 0.0, "Time": null }, "geometry": { "type": "Point", "coordinates": [ -2.419021961494425, 51.553138432843447 ] } },
{ "type": "Feature", "properties": { "fid": 16, "FID_": 15, "NAME": "The Civic Centre, Kingswood", "X_coord": 365275.38606699998, "Y_coord": 173864.35428100001, "COREID": 16, "Selected": 0.0, "Time": null }, "geometry": { "type": "Point", "coordinates": [ -2.501232103636815, 51.462678983774751 ] } },
{ "type": "Feature", "properties": { "fid": 17, "FID_": 16, "NAME": "Almondsbury Business Park", "X_coord": 361362.078569, "Y_coord": 183296.758306, "COREID": 17, "Selected": 0.0, "Time": null }, "geometry": { "type": "Point", "coordinates": [ -2.558595727602228, 51.54723157595101 ] } },
{ "type": "Feature", "properties": { "fid": 18, "FID_": 17, "NAME": "Eclipse Office Park", "X_coord": 364433.13787899999, "Y_coord": 175897.87786499999, "COREID": 18, "Selected": 0.0, "Time": null }, "geometry": { "type": "Point", "coordinates": [ -2.513560631254621, 51.480910216023219 ] } },
{ "type": "Feature", "properties": { "fid": 19, "FID_": 18, "NAME": "McBraida site", "X_coord": 367862.92609899997, "Y_coord": 172997.521824, "COREID": 19, "Selected": 0.0, "Time": null }, "geometry": { "type": "Point", "coordinates": [ -2.463908213202013, 51.455038463302266 ] } },
{ "type": "Feature", "properties": { "fid": 20, "FID_": 19, "NAME": "Longwell Green Industrial Estate", "X_coord": 365495.224063, "Y_coord": 171712.604326, "COREID": 20, "Selected": 0.0, "Time": null }, "geometry": { "type": "Point", "coordinates": [ -2.4978571911023, 51.443345668382072 ] } },
{ "type": "Feature", "properties": { "fid": 21, "FID_": 20, "NAME": "Hanham Business Park", "X_coord": 363712.06725700002, "Y_coord": 172023.89985, "COREID": 21, "Selected": 0.0, "Time": null }, "geometry": { "type": "Point", "coordinates": [ -2.523544794068008, 51.446032772292462 ] } },
{ "type": "Feature", "properties": { "fid": 22, "FID_": 21, "NAME": "Bath Road, Willsbridge", "X_coord": 367144.76988400001, "Y_coord": 170085.522723, "COREID": 22, "Selected": 0.0, "Time": null }, "geometry": { "type": "Point", "coordinates": [ -2.473972313501589, 51.428814596194371 ] } },
{ "type": "Feature", "properties": { "fid": 23, "FID_": 22, "NAME": "Hayward Industrial Estate", "X_coord": 364739.42906200001, "Y_coord": 175461.27437900001, "COREID": 23, "Selected": 0.0, "Time": null }, "geometry": { "type": "Point", "coordinates": [ -2.509106441149836, 51.47700389301697 ] } },
{ "type": "Feature", "properties": { "fid": 24, "FID_": 23, "NAME": "2-8 London Road, Warmley", "X_coord": 367218.42486600002, "Y_coord": 173408.09506200001, "COREID": 24, "Selected": 0.0, "Time": null }, "geometry": { "type": "Point", "coordinates": [ -2.473221750905995, 51.458692933951674 ] } },
{ "type": "Feature", "properties": { "fid": 25, "FID_": 24, "NAME": "Aztec West", "X_coord": 360266.87504100002, "Y_coord": 182697.75541499999, "COREID": 25, "Selected": 0.0, "Time": null }, "geometry": { "type": "Point", "coordinates": [ -2.574321106824457, 51.541769694675324 ] } },
{ "type": "Feature", "properties": { "fid": 26, "FID_": 25, "NAME": "Bowling Hill, Chipping Sodbury", "X_coord": 372212.347626, "Y_coord": 182396.49995500001, "COREID": 26, "Selected": 0.0, "Time": null }, "geometry": { "type": "Point", "coordinates": [ -2.402056300012163, 51.539778074377352 ] } },
{ "type": "Feature", "properties": { "fid": 27, "FID_": 26, "NAME": "Council Offices, Badminton Road, Yate", "X_coord": 369635.85491400003, "Y_coord": 182538.59292600001, "COREID": 27, "Selected": 0.0, "Time": null }, "geometry": { "type": "Point", "coordinates": [ -2.439217248396013, 51.540922396375819 ] } },
{ "type": "Feature", "properties": { "fid": 28, "FID_": 27, "NAME": "Great Western Business Park, Yate", "X_coord": 369939.24837799999, "Y_coord": 183222.21050700001, "COREID": 28, "Selected": 0.0, "Time": null }, "geometry": { "type": "Point", "coordinates": [ -2.434901348514057, 51.547085198295576 ] } },
{ "type": "Feature", "properties": { "fid": 29, "FID_": 28, "NAME": "Indesit Site, Station Road", "X_coord": 370395.42421099998, "Y_coord": 182635.946089, "COREID": 29, "Selected": 0.0, "Time": null }, "geometry": { "type": "Point", "coordinates": [ -2.428273495514823, 51.541838222114258 ] } },
{ "type": "Feature", "properties": { "fid": 30, "FID_": 29, "NAME": "Westerleigh Business Park", "X_coord": 369640.48717199999, "Y_coord": 182012.55665700001, "COREID": 30, "Selected": 0.0, "Time": null }, "geometry": { "type": "Point", "coordinates": [ -2.43910491364076, 51.5361929809701 ] } },
{ "type": "Feature", "properties": { "fid": 31, "FID_": 30, "NAME": "Thornbury Industrial Estate", "X_coord": 364019.86722800002, "Y_coord": 189436.81010100001, "COREID": 31, "Selected": 0.0, "Time": null }, "geometry": { "type": "Point", "coordinates": [ -2.520900183879424, 51.602612912141502 ] } },
{ "type": "Feature", "properties": { "fid": 32, "FID_": 31, "NAME": "Arnolds Fields Trading Estate, Wickwar", "X_coord": 372250.51543500001, "Y_coord": 188532.768228, "COREID": 32, "Selected": 0.0, "Time": null }, "geometry": { "type": "Point", "coordinates": [ -2.401992564483324, 51.594951996778313 ] } },
{ "type": "Feature", "properties": { "fid": 33, "FID_": 32, "NAME": "Bristol Business Park", "X_coord": 362474.34298399999, "Y_coord": 178314.29240499999, "COREID": 33, "Selected": 0.0, "Time": null }, "geometry": { "type": "Point", "coordinates": [ -2.542024021715529, 51.502509409802663 ] } },
{ "type": "Feature", "properties": { "fid": 34, "FID_": 33, "NAME": "Old Cider Mill Trading Estate", "X_coord": 372565.53035999998, "Y_coord": 189024.62842399999, "COREID": 34, "Selected": 0.0, "Time": null }, "geometry": { "type": "Point", "coordinates": [ -2.397483692902554, 51.599389854236748 ] } },
{ "type": "Feature", "properties": { "fid": 35, "FID_": 34, "NAME": "Pucklechurch Trading Estate", "X_coord": 369803.90580499999, "Y_coord": 175929.39356500001, "COREID": 35, "Selected": 0.0, "Time": null }, "geometry": { "type": "Point", "coordinates": [ -2.436225926189337, 51.481506912934336 ] } },
{ "type": "Feature", "properties": { "fid": 36, "FID_": 35, "NAME": "Station Premises and Yard, Winterbourne", "X_coord": 365312.378203, "Y_coord": 179938.28744300001, "COREID": 36, "Selected": 0.0, "Time": null }, "geometry": { "type": "Point", "coordinates": [ -2.501298527599075, 51.51729281160285 ] } },
{ "type": "Feature", "properties": { "fid": 37, "FID_": 36, "NAME": "Station Road, Charfield", "X_coord": 372428.08868799999, "Y_coord": 192263.63932399999, "COREID": 37, "Selected": 0.0, "Time": null }, "geometry": { "type": "Point", "coordinates": [ -2.399723860808901, 51.628505284486373 ] } },
{ "type": "Feature", "properties": { "fid": 38, "FID_": 37, "NAME": "Sunguard Vivista Premises, Marshfield", "X_coord": 378154.64003399998, "Y_coord": 173880.39047499999, "COREID": 38, "Selected": 0.0, "Time": null }, "geometry": { "type": "Point", "coordinates": [ -2.315847352214189, 51.463469467119168 ] } },
{ "type": "Feature", "properties": { "fid": 39, "FID_": 38, "NAME": "Pearce/ Auto Techniques site", "X_coord": 362963.77658200002, "Y_coord": 179638.113335, "COREID": 39, "Selected": 0.0, "Time": null }, "geometry": { "type": "Point", "coordinates": [ -2.535112572251414, 51.514444345814169 ] } },
{ "type": "Feature", "properties": { "fid": 40, "FID_": 39, "NAME": "University of the West of England", "X_coord": 361671.240124, "Y_coord": 178120.87327400001, "COREID": 40, "Selected": 0.0, "Time": null }, "geometry": { "type": "Point", "coordinates": [ -2.553572664004345, 51.500716311576397 ] } },
{ "type": "Feature", "properties": { "fid": 41, "FID_": 40, "NAME": "Coopers Site", "X_coord": 370735.00208800001, "Y_coord": 181985.22504200001, "COREID": 41, "Selected": 0.0, "Time": null }, "geometry": { "type": "Point", "coordinates": [ -2.42332281745873, 51.536005266675417 ] } },
{ "type": "Feature", "properties": { "fid": 42, "FID_": 41, "NAME": "Stover Road and North Road Industrial Estates", "X_coord": 369910.13959400001, "Y_coord": 182734.49016799999, "COREID": 42, "Selected": 0.0, "Time": null }, "geometry": { "type": "Point", "coordinates": [ -2.435279246550514, 51.542698481701066 ] } },
{ "type": "Feature", "properties": { "fid": 43, "FID_": 42, "NAME": "Badminton Road Trading Estate", "X_coord": 369864.59305999998, "Y_coord": 182320.66495599999, "COREID": 43, "Selected": 0.0, "Time": null }, "geometry": { "type": "Point", "coordinates": [ -2.435900421892419, 51.538975281721939 ] } },
{ "type": "Feature", "properties": { "fid": 44, "FID_": 43, "NAME": "Ministry of Defence - Abbey Wood", "X_coord": 361293.68025600002, "Y_coord": 178369.836442, "COREID": 44, "Selected": 0.0, "Time": null }, "geometry": { "type": "Point", "coordinates": [ -2.559039077221928, 51.502928940176517 ] } },
{ "type": "Feature", "properties": { "fid": 45, "FID_": 44, "NAME": "Old Gloucester Road, Hambrook", "X_coord": 363465.22331700003, "Y_coord": 180540.15436300001, "COREID": 45, "Selected": 0.0, "Time": null }, "geometry": { "type": "Point", "coordinates": [ -2.527980492533327, 51.52258739892816 ] } },
{ "type": "Feature", "properties": { "fid": 46, "FID_": 45, "NAME": "Abbey Wood Business Park -  Emma Chris Way", "X_coord": 361051.95025499997, "Y_coord": 178794.33159799999, "COREID": 46, "Selected": 0.0, "Time": null }, "geometry": { "type": "Point", "coordinates": [ -2.562568550934238, 51.506728928863687 ] } },
{ "type": "Feature", "properties": { "fid": 47, "FID_": 46, "NAME": "Parkway Business Park", "X_coord": 361953.99842299998, "Y_coord": 179144.40239199999, "COREID": 47, "Selected": 0.0, "Time": null }, "geometry": { "type": "Point", "coordinates": [ -2.549610083676605, 51.509938066153751 ] } },
{ "type": "Feature", "properties": { "fid": 48, "FID_": 47, "NAME": "Chapel Lane, Warmley", "X_coord": 366965.66195500002, "Y_coord": 173705.07522200001, "COREID": 48, "Selected": 0.0, "Time": null }, "geometry": { "type": "Point", "coordinates": [ -2.476887521521571, 51.461348399616583 ] } },
{ "type": "Feature", "properties": { "fid": 49, "FID_": 48, "NAME": "Tower Road, Warmley", "X_coord": 367146.51656299998, "Y_coord": 173007.445511, "COREID": 49, "Selected": 0.0, "Time": null }, "geometry": { "type": "Point", "coordinates": [ -2.474219351742609, 51.455086421333739 ] } },
{ "type": "Feature", "properties": { "fid": 50, "FID_": 49, "NAME": "Bristol Uniforms site", "X_coord": 364993.74633200001, "Y_coord": 176010.63576100001, "COREID": 50, "Selected": 0.0, "Time": null }, "geometry": { "type": "Point", "coordinates": [ -2.50549932230189, 51.481959127979827 ] } },
{ "type": "Feature", "properties": { "fid": 51, "FID_": 50, "NAME": "Oatley Trading Estate, Kingswood", "X_coord": 364536.308709, "Y_coord": 174257.086652, "COREID": 51, "Selected": 0.0, "Time": null }, "geometry": { "type": "Point", "coordinates": [ -2.511909785513102, 51.466164123864402 ] } },
{ "type": "Feature", "properties": { "fid": 52, "FID_": 51, "NAME": "Port operations", "X_coord": 351340.16052899999, "Y_coord": 179165.13720900001, "COREID": 52, "Selected": 0.0, "Time": null }, "geometry": { "type": "Point", "coordinates": [ -2.70254030012838, 51.509307945242917 ] } },
{ "type": "Feature", "properties": { "fid": 53, "FID_": 52, "NAME": "Seabank Power Station", "X_coord": 353604.916257, "Y_coord": 182463.163229, "COREID": 53, "Selected": 0.0, "Time": null }, "geometry": { "type": "Point", "coordinates": [ -2.67034493730558, 51.539150834501143 ] } },
{ "type": "Feature", "properties": { "fid": 54, "FID_": 53, "NAME": "Severn Road (north)", "X_coord": 353407.36200999998, "Y_coord": 182077.35575700001, "COREID": 54, "Selected": 0.0, "Time": null }, "geometry": { "type": "Point", "coordinates": [ -2.673141986815605, 51.535665809109659 ] } },
{ "type": "Feature", "properties": { "fid": 55, "FID_": 54, "NAME": "Severn Road (east)", "X_coord": 353751.51955500001, "Y_coord": 181805.93202199999, "COREID": 55, "Selected": 0.0, "Time": null }, "geometry": { "type": "Point", "coordinates": [ -2.668144721944711, 51.533253864673007 ] } },
{ "type": "Feature", "properties": { "fid": 56, "FID_": 55, "NAME": "Chittening Road / Severn Road (south)", "X_coord": 353637.04177000001, "Y_coord": 181569.446734, "COREID": 56, "Selected": 0.0, "Time": null }, "geometry": { "type": "Point", "coordinates": [ -2.669763779992801, 51.53111825986759 ] } },
{ "type": "Feature", "properties": { "fid": 57, "FID_": 56, "NAME": "Chittening Road (north)", "X_coord": 353429.92318500002, "Y_coord": 181704.921703, "COREID": 57, "Selected": 0.0, "Time": null }, "geometry": { "type": "Point", "coordinates": [ -2.672767351602889, 51.532319198928043 ] } },
{ "type": "Feature", "properties": { "fid": 58, "FID_": 57, "NAME": "Chittening Industrial Estate", "X_coord": 353027.30377100001, "Y_coord": 181461.03698500001, "COREID": 58, "Selected": 0.0, "Time": null }, "geometry": { "type": "Point", "coordinates": [ -2.678538636653007, 51.530093046879173 ] } },
{ "type": "Feature", "properties": { "fid": 59, "FID_": 58, "NAME": "Smoke Lane (north)", "X_coord": 353021.84990099998, "Y_coord": 181052.992638, "COREID": 59, "Selected": 0.0, "Time": null }, "geometry": { "type": "Point", "coordinates": [ -2.678562691529771, 51.526423951600265 ] } },
{ "type": "Feature", "properties": { "fid": 60, "FID_": 59, "NAME": "Historic gun battery site, Smoke Lane", "X_coord": 352452.99948300002, "Y_coord": 180841.81602100001, "COREID": 60, "Selected": 0.0, "Time": null }, "geometry": { "type": "Point", "coordinates": [ -2.686733220314626, 51.524477582157893 ] } },
{ "type": "Feature", "properties": { "fid": 61, "FID_": 60, "NAME": "Smoke Lane Industrial Estate", "X_coord": 352305.246881, "Y_coord": 180649.335712, "COREID": 61, "Selected": 0.0, "Time": null }, "geometry": { "type": "Point", "coordinates": [ -2.688836632479212, 51.52273454516844 ] } },
{ "type": "Feature", "properties": { "fid": 62, "FID_": 61, "NAME": "Rockingham Gate", "X_coord": 352609.850202, "Y_coord": 180680.88719099999, "COREID": 62, "Selected": 0.0, "Time": null }, "geometry": { "type": "Point", "coordinates": [ -2.684450854330901, 51.523043922084028 ] } },
{ "type": "Feature", "properties": { "fid": 63, "FID_": 62, "NAME": "Chemical factory site, Smoke Lane", "X_coord": 352581.46537200001, "Y_coord": 180484.945767, "COREID": 63, "Selected": 0.0, "Time": null }, "geometry": { "type": "Point", "coordinates": [ -2.684833512120304, 51.52127986626742 ] } },
{ "type": "Feature", "properties": { "fid": 64, "FID_": 63, "NAME": "Poplar Way West (north)", "X_coord": 353071.38899000001, "Y_coord": 180624.39880299999, "COREID": 64, "Selected": 0.0, "Time": null }, "geometry": { "type": "Point", "coordinates": [ -2.677791425116713, 51.522574681286542 ] } },
{ "type": "Feature", "properties": { "fid": 65, "FID_": 64, "NAME": "Poplar Way West (south)", "X_coord": 352880.00513300003, "Y_coord": 180397.44979399999, "COREID": 65, "Selected": 0.0, "Time": null }, "geometry": { "type": "Point", "coordinates": [ -2.680519273328066, 51.520518254749796 ] } },
{ "type": "Feature", "properties": { "fid": 66, "FID_": 65, "NAME": "IO Centre and St Martins Industrial Park", "X_coord": 353605.90610999998, "Y_coord": 180329.77449400001, "COREID": 66, "Selected": 0.0, "Time": null }, "geometry": { "type": "Point", "coordinates": [ -2.670048921609746, 51.519970040396757 ] } },
{ "type": "Feature", "properties": { "fid": 67, "FID_": 66, "NAME": "Poplar Fields, Packgate Road", "X_coord": 353832.50638199999, "Y_coord": 180173.087902, "COREID": 67, "Selected": 0.0, "Time": null }, "geometry": { "type": "Point", "coordinates": [ -2.666762697895515, 51.518579912712418 ] } },
{ "type": "Feature", "properties": { "fid": 68, "FID_": 67, "NAME": "Burcott Road", "X_coord": 352572.271045, "Y_coord": 180254.04201100001, "COREID": 68, "Selected": 0.0, "Time": null }, "geometry": { "type": "Point", "coordinates": [ -2.684934864176118, 51.519203085442335 ] } },
{ "type": "Feature", "properties": { "fid": 69, "FID_": 68, "NAME": "Severnside Trading Estate, Dean Road", "X_coord": 352259.60485599999, "Y_coord": 180318.29705, "COREID": 69, "Selected": 0.0, "Time": null }, "geometry": { "type": "Point", "coordinates": [ -2.689449475917383, 51.519754384054266 ] } },
{ "type": "Feature", "properties": { "fid": 70, "FID_": 69, "NAME": "Severnside Trading Estate, St Andrew's Road", "X_coord": 352053.54298299999, "Y_coord": 180093.607666, "COREID": 70, "Selected": 0.0, "Time": null }, "geometry": { "type": "Point", "coordinates": [ -2.692388457590214, 51.517716755138039 ] } },
{ "type": "Feature", "properties": { "fid": 71, "FID_": 70, "NAME": "Ironchurch Road and Holesmouth Junction", "X_coord": 352020.52101199998, "Y_coord": 180296.10474000001, "COREID": 71, "Selected": 0.0, "Time": null }, "geometry": { "type": "Point", "coordinates": [ -2.692891963646203, 51.519534550377784 ] } },
{ "type": "Feature", "properties": { "fid": 72, "FID_": 71, "NAME": "Constellation Park", "X_coord": 352316.468146, "Y_coord": 179998.270598, "COREID": 72, "Selected": 0.0, "Time": null }, "geometry": { "type": "Point", "coordinates": [ -2.688586591943981, 51.516881910062182 ] } },
{ "type": "Feature", "properties": { "fid": 73, "FID_": 72, "NAME": "Avonmouth Logistics Park", "X_coord": 352599.52638900001, "Y_coord": 179875.87885000001, "COREID": 73, "Selected": 0.0, "Time": null }, "geometry": { "type": "Point", "coordinates": [ -2.684491095472666, 51.51580539186881 ] } },
{ "type": "Feature", "properties": { "fid": 74, "FID_": 73, "NAME": "Merebank Road", "X_coord": 352863.44344800001, "Y_coord": 179980.389169, "COREID": 74, "Selected": 0.0, "Time": null }, "geometry": { "type": "Point", "coordinates": [ -2.680702031022701, 51.516767161051028 ] } },
{ "type": "Feature", "properties": { "fid": 75, "FID_": 74, "NAME": "Avonmouth Refuse Transfer Station", "X_coord": 353304.72502999997, "Y_coord": 179872.330162, "COREID": 75, "Selected": 0.0, "Time": null }, "geometry": { "type": "Point", "coordinates": [ -2.674328617267076, 51.515832363288801 ] } },
{ "type": "Feature", "properties": { "fid": 76, "FID_": 75, "NAME": "Sewage Treatment Works", "X_coord": 353441.522673, "Y_coord": 179459.62151299999, "COREID": 76, "Selected": 0.0, "Time": null }, "geometry": { "type": "Point", "coordinates": [ -2.672302694697855, 51.512133092545632 ] } },
{ "type": "Feature", "properties": { "fid": 77, "FID_": 76, "NAME": "Spoil Heap, Kings Weston Lane", "X_coord": 352870.89818399999, "Y_coord": 179563.711354, "COREID": 77, "Selected": 0.0, "Time": null }, "geometry": { "type": "Point", "coordinates": [ -2.680538754509338, 51.513021515444315 ] } },
{ "type": "Feature", "properties": { "fid": 78, "FID_": 77, "NAME": "St Andrew's Road / Lawrence Weston Lane / Boundary Road", "X_coord": 352297.47076900001, "Y_coord": 179584.81479400001, "COREID": 78, "Selected": 0.0, "Time": null }, "geometry": { "type": "Point", "coordinates": [ -2.688804260667278, 51.513163008044259 ] } },
{ "type": "Feature", "properties": { "fid": 79, "FID_": 78, "NAME": "St Andrew's Road / Zinc Road / Boundary Road", "X_coord": 352209.10963800002, "Y_coord": 179146.41997399999, "COREID": 79, "Selected": 0.0, "Time": null }, "geometry": { "type": "Point", "coordinates": [ -2.690017907293699, 51.509214004973096 ] } },
{ "type": "Feature", "properties": { "fid": 80, "FID_": 79, "NAME": "St George's Industrial Estate", "X_coord": 351823.99973799998, "Y_coord": 179457.47977000001, "COREID": 80, "Selected": 0.0, "Time": null }, "geometry": { "type": "Point", "coordinates": [ -2.6956091776815, 51.511977893453988 ] } },
{ "type": "Feature", "properties": { "fid": 81, "FID_": 80, "NAME": "St Andrew's Road / King Road Avenue", "X_coord": 351644.032955, "Y_coord": 178794.347416, "COREID": 81, "Selected": 0.0, "Time": null }, "geometry": { "type": "Point", "coordinates": [ -2.698111132292681, 51.506000404156687 ] } },
{ "type": "Feature", "properties": { "fid": 82, "FID_": 81, "NAME": "Third Way (north)", "X_coord": 352223.68543200003, "Y_coord": 178729.750007, "COREID": 82, "Selected": 0.0, "Time": null }, "geometry": { "type": "Point", "coordinates": [ -2.689751309079389, 51.505469044371651 ] } },
{ "type": "Feature", "properties": { "fid": 83, "FID_": 82, "NAME": "Third Way / Avonmouth Way", "X_coord": 352049.99815, "Y_coord": 178596.86144199999, "COREID": 83, "Selected": 0.0, "Time": null }, "geometry": { "type": "Point", "coordinates": [ -2.69223548058832, 51.504259523642361 ] } },
{ "type": "Feature", "properties": { "fid": 84, "FID_": 83, "NAME": "Avonmouth Way (south)", "X_coord": 352799.25512, "Y_coord": 178334.988606, "COREID": 84, "Selected": 0.0, "Time": null }, "geometry": { "type": "Point", "coordinates": [ -2.681406201928286, 51.50196830070135 ] } },
{ "type": "Feature", "properties": { "fid": 85, "FID_": 84, "NAME": "Nova Distribution Centre / Crowley Way / St Brendan's Way", "X_coord": 351850.71711299999, "Y_coord": 178318.83566400001, "COREID": 85, "Selected": 0.0, "Time": null }, "geometry": { "type": "Point", "coordinates": [ -2.695068365753031, 51.501742866138464 ] } },
{ "type": "Feature", "properties": { "fid": 86, "FID_": 85, "NAME": "St Brendan's Way (south)", "X_coord": 352010.723811, "Y_coord": 178097.700961, "COREID": 86, "Selected": 0.0, "Time": null }, "geometry": { "type": "Point", "coordinates": [ -2.692733210164675, 51.499768328727974 ] } },
{ "type": "Feature", "properties": { "fid": 87, "FID_": 86, "NAME": "Island Trade Park and St Brendan's Court", "X_coord": 352159.26475899998, "Y_coord": 178168.142773, "COREID": 87, "Selected": 0.0, "Time": null }, "geometry": { "type": "Point", "coordinates": [ -2.690603048997217, 51.500414280099704 ] } },
{ "type": "Feature", "properties": { "fid": 88, "FID_": 87, "NAME": "Atlantic Road and Avonbridge Trading Estate", "X_coord": 352481.67011200002, "Y_coord": 177938.565649, "COREID": 88, "Selected": 0.0, "Time": null }, "geometry": { "type": "Point", "coordinates": [ -2.685927722081671, 51.498377456840338 ] } },
{ "type": "Feature", "properties": { "fid": 89, "FID_": 88, "NAME": "Portview Road", "X_coord": 352034.72704500001, "Y_coord": 177496.18409699999, "COREID": 89, "Selected": 0.0, "Time": null }, "geometry": { "type": "Point", "coordinates": [ -2.692305474248889, 51.494362246810667 ] } },
{ "type": "Feature", "properties": { "fid": 90, "FID_": 89, "NAME": "Victoria Road", "X_coord": 351924.56755199999, "Y_coord": 177342.77532700001, "COREID": 90, "Selected": 0.0, "Time": null }, "geometry": { "type": "Point", "coordinates": [ -2.693871187887904, 51.492973597563747 ] } },
{ "type": "Feature", "properties": { "fid": 91, "FID_": 90, "NAME": "Access 18", "X_coord": 352721.90494199999, "Y_coord": 179037.53403000001, "COREID": 91, "Selected": 0.0, "Time": null }, "geometry": { "type": "Point", "coordinates": [ -2.682614900804027, 51.50827827686161 ] } },
{ "type": "Feature", "properties": { "fid": 92, "FID_": 91, "NAME": "Poplar Way East", "X_coord": 353659.404018, "Y_coord": 179886.12671000001, "COREID": 92, "Selected": 0.0, "Time": null }, "geometry": { "type": "Point", "coordinates": [ -2.669219454634489, 51.515985685067974 ] } },
{ "type": "Feature", "properties": { "fid": 93, "FID_": 92, "NAME": "Bedminster", "X_coord": 358796.72368300002, "Y_coord": 171559.26821000001, "COREID": 93, "Selected": 0.0, "Time": 16.35 }, "geometry": { "type": "Point", "coordinates": [ -2.59421461684843, 51.441517936668902 ] } },
{ "type": "Feature", "properties": { "fid": 94, "FID_": 93, "NAME": "Aerospace industries, south of Filton Airfield", "X_coord": 359421.41116700001, "Y_coord": 179824.787125, "COREID": 94, "Selected": 0.0, "Time": null }, "geometry": { "type": "Point", "coordinates": [ -2.586179541385961, 51.515878658659517 ] } },
{ "type": "Feature", "properties": { "fid": 95, "FID_": 94, "NAME": "Romney Avenue", "X_coord": 360497.76426500001, "Y_coord": 176395.578267, "COREID": 95, "Selected": 0.0, "Time": null }, "geometry": { "type": "Point", "coordinates": [ -2.570283696296067, 51.485123098718944 ] } },
{ "type": "Feature", "properties": { "fid": 96, "FID_": 95, "NAME": "Dovercourt Road", "X_coord": 360209.80365800002, "Y_coord": 176375.605407, "COREID": 96, "Selected": 0.0, "Time": null }, "geometry": { "type": "Point", "coordinates": [ -2.574428285619646, 51.484923275353751 ] } },
{ "type": "Feature", "properties": { "fid": 97, "FID_": 96, "NAME": "Petherbridge Way", "X_coord": 360141.73462800001, "Y_coord": 176150.101563, "COREID": 97, "Selected": 0.0, "Time": null }, "geometry": { "type": "Point", "coordinates": [ -2.575382996902434, 51.48289095517238 ] } },
{ "type": "Feature", "properties": { "fid": 98, "FID_": 97, "NAME": "Muller Road", "X_coord": 359936.64497899998, "Y_coord": 176121.90635899999, "COREID": 98, "Selected": 0.0, "Time": null }, "geometry": { "type": "Point", "coordinates": [ -2.578333085821968, 51.482622918282104 ] } },
{ "type": "Feature", "properties": { "fid": 99, "FID_": 98, "NAME": "Glenfrome Road (south)", "X_coord": 360587.28925199999, "Y_coord": 174850.7687, "COREID": 99, "Selected": 0.0, "Time": 18.68 }, "geometry": { "type": "Point", "coordinates": [ -2.568821590931871, 51.471239898140958 ] } },
{ "type": "Feature", "properties": { "fid": 100, "FID_": 99, "NAME": "Ashley Hill", "X_coord": 359933.71685800003, "Y_coord": 174694.12611499999, "COREID": 100, "Selected": 0.0, "Time": 13.82 }, "geometry": { "type": "Point", "coordinates": [ -2.578212845877858, 51.469785478601729 ] } },
{ "type": "Feature", "properties": { "fid": 101, "FID_": 100, "NAME": "Montpelier Central / Station Road", "X_coord": 359158.504701, "Y_coord": 174481.56849800001, "COREID": 101, "Selected": 0.0, "Time": 12.25 }, "geometry": { "type": "Point", "coordinates": [ -2.589348073106518, 51.46781878310324 ] } },
{ "type": "Feature", "properties": { "fid": 102, "FID_": 101, "NAME": "New Station Way", "X_coord": 363476.74061199999, "Y_coord": 175621.22308699999, "COREID": 102, "Selected": 0.0, "Time": null }, "geometry": { "type": "Point", "coordinates": [ -2.527303607168383, 51.47836163595435 ] } },
{ "type": "Feature", "properties": { "fid": 103, "FID_": 102, "NAME": "Filwood Road (east)", "X_coord": 363586.25951499998, "Y_coord": 175508.345481, "COREID": 103, "Selected": 0.0, "Time": null }, "geometry": { "type": "Point", "coordinates": [ -2.525715000776593, 51.477353823247007 ] } },
{ "type": "Feature", "properties": { "fid": 104, "FID_": 103, "NAME": "Lodge Causeway (west)", "X_coord": 362903.500375, "Y_coord": 175265.160695, "COREID": 104, "Selected": 0.0, "Time": null }, "geometry": { "type": "Point", "coordinates": [ -2.535520018633568, 51.475122820357697 ] } },
{ "type": "Feature", "properties": { "fid": 105, "FID_": 104, "NAME": "Woodland Way", "X_coord": 364249.46964700002, "Y_coord": 174849.874388, "COREID": 105, "Selected": 0.0, "Time": null }, "geometry": { "type": "Point", "coordinates": [ -2.516098968936688, 51.471475858284258 ] } },
{ "type": "Feature", "properties": { "fid": 106, "FID_": 105, "NAME": "Fishponds Trading Estate", "X_coord": 362513.37502699997, "Y_coord": 174607.42185300001, "COREID": 106, "Selected": 0.0, "Time": null }, "geometry": { "type": "Point", "coordinates": [ -2.541066921141986, 51.46918322492386 ] } },
{ "type": "Feature", "properties": { "fid": 107, "FID_": 106, "NAME": "Eastpark Trading Estate, Gordon Road", "X_coord": 361783.27576699998, "Y_coord": 174366.27037700001, "COREID": 107, "Selected": 0.0, "Time": null }, "geometry": { "type": "Point", "coordinates": [ -2.551551117141681, 51.466966019788345 ] } },
{ "type": "Feature", "properties": { "fid": 108, "FID_": 107, "NAME": "Jane Street / Russell Town Avenue", "X_coord": 360975.84707600001, "Y_coord": 173438.24192, "COREID": 108, "Selected": 0.0, "Time": 17.35 }, "geometry": { "type": "Point", "coordinates": [ -2.563071358030485, 51.458566765426653 ] } },
{ "type": "Feature", "properties": { "fid": 109, "FID_": 108, "NAME": "Bush Industrial Estate", "X_coord": 361734.888125, "Y_coord": 173798.35652199999, "COREID": 109, "Selected": 0.0, "Time": null }, "geometry": { "type": "Point", "coordinates": [ -2.55218600054783, 51.461856569552339 ] } },
{ "type": "Feature", "properties": { "fid": 110, "FID_": 109, "NAME": "Netham Road / Blackswarth Road (north)", "X_coord": 361709.71841099998, "Y_coord": 173102.66922899999, "COREID": 110, "Selected": 0.0, "Time": null }, "geometry": { "type": "Point", "coordinates": [ -2.552472721897111, 51.45559986215742 ] } },
{ "type": "Feature", "properties": { "fid": 111, "FID_": 110, "NAME": "Netham Road / Blackswarth Road (south)", "X_coord": 361809.25816799997, "Y_coord": 172916.257213, "COREID": 111, "Selected": 0.0, "Time": null }, "geometry": { "type": "Point", "coordinates": [ -2.551020005791496, 51.453930554111743 ] } },
{ "type": "Feature", "properties": { "fid": 112, "FID_": 111, "NAME": "St Anne's Road (north)", "X_coord": 361929.085693, "Y_coord": 172807.240162, "COREID": 112, "Selected": 0.0, "Time": null }, "geometry": { "type": "Point", "coordinates": [ -2.549283800499594, 51.452958463617236 ] } },
{ "type": "Feature", "properties": { "fid": 113, "FID_": 112, "NAME": "St Anne's Road (south)", "X_coord": 362107.07167400001, "Y_coord": 172779.020838, "COREID": 113, "Selected": 0.0, "Time": null }, "geometry": { "type": "Point", "coordinates": [ -2.546719427981066, 51.452716716906458 ] } },
{ "type": "Feature", "properties": { "fid": 114, "FID_": 113, "NAME": "Feeder Road", "X_coord": 361301.02859599999, "Y_coord": 172593.660313, "COREID": 114, "Selected": 0.0, "Time": null }, "geometry": { "type": "Point", "coordinates": [ -2.558298524295942, 51.450995434220722 ] } },
{ "type": "Feature", "properties": { "fid": 115, "FID_": 114, "NAME": "Whitby Road (north)", "X_coord": 361640.50206700002, "Y_coord": 172454.412667, "COREID": 115, "Selected": 0.0, "Time": null }, "geometry": { "type": "Point", "coordinates": [ -2.553398339930192, 51.449766611865236 ] } },
{ "type": "Feature", "properties": { "fid": 116, "FID_": 115, "NAME": "Whitby Road (south)", "X_coord": 361495.64541300002, "Y_coord": 172159.98751100001, "COREID": 116, "Selected": 0.0, "Time": null }, "geometry": { "type": "Point", "coordinates": [ -2.555450641918768, 51.447109538434482 ] } },
{ "type": "Feature", "properties": { "fid": 117, "FID_": 116, "NAME": "Whitby Road (west)", "X_coord": 361348.28107199998, "Y_coord": 172247.92133499999, "COREID": 117, "Selected": 0.0, "Time": null }, "geometry": { "type": "Point", "coordinates": [ -2.557580675476144, 51.447890092537065 ] } },
{ "type": "Feature", "properties": { "fid": 118, "FID_": 117, "NAME": "Castle Court", "X_coord": 361052.67587699997, "Y_coord": 171840.95237499999, "COREID": 118, "Selected": 0.0, "Time": 19.37 }, "geometry": { "type": "Point", "coordinates": [ -2.561789232132133, 51.444210673543175 ] } },
{ "type": "Feature", "properties": { "fid": 119, "FID_": 118, "NAME": "Bath Road / Sandy Park Road", "X_coord": 361292.87179200002, "Y_coord": 171600.64399700001, "COREID": 119, "Selected": 0.0, "Time": 19.94 }, "geometry": { "type": "Point", "coordinates": [ -2.558306956080715, 51.442066547587636 ] } },
{ "type": "Feature", "properties": { "fid": 120, "FID_": 119, "NAME": "Brislington Trading Estate / Bath Road (north)", "X_coord": 362741.47766400001, "Y_coord": 170597.641921, "COREID": 120, "Selected": 0.0, "Time": null }, "geometry": { "type": "Point", "coordinates": [ -2.537359582559554, 51.433145834084399 ] } },
{ "type": "Feature", "properties": { "fid": 121, "FID_": 120, "NAME": "Hungerford Road / Yelverton Road", "X_coord": 362092.31346899999, "Y_coord": 170269.679045, "COREID": 121, "Selected": 0.0, "Time": null }, "geometry": { "type": "Point", "coordinates": [ -2.546662252894145, 51.430153872715465 ] } },
{ "type": "Feature", "properties": { "fid": 122, "FID_": 121, "NAME": "Flowers Hill Trading Estate / Bath Road (south)", "X_coord": 362488.35549, "Y_coord": 170079.09559000001, "COREID": 122, "Selected": 0.0, "Time": null }, "geometry": { "type": "Point", "coordinates": [ -2.540945524103309, 51.428466742256802 ] } },
{ "type": "Feature", "properties": { "fid": 123, "FID_": 122, "NAME": "Bedminster", "X_coord": 359137.01974999998, "Y_coord": 171782.82661399999, "COREID": 123, "Selected": 0.0, "Time": 17.78 }, "geometry": { "type": "Point", "coordinates": [ -2.589344666057494, 51.44355268987816 ] } },
{ "type": "Feature", "properties": { "fid": 124, "FID_": 123, "NAME": "Malago Road (north)", "X_coord": 358436.15315299999, "Y_coord": 171250.576156, "COREID": 124, "Selected": 0.0, "Time": 19.8 }, "geometry": { "type": "Point", "coordinates": [ -2.599365785711257, 51.438716048234163 ] } },
{ "type": "Feature", "properties": { "fid": 125, "FID_": 124, "NAME": "Sheene Road (east)", "X_coord": 358302.73805099999, "Y_coord": 171181.55736400001, "COREID": 125, "Selected": 0.0, "Time": null }, "geometry": { "type": "Point", "coordinates": [ -2.601276953833699, 51.438085663550495 ] } },
{ "type": "Feature", "properties": { "fid": 126, "FID_": 125, "NAME": "Malago Vale Estate", "X_coord": 358509.77103399998, "Y_coord": 171139.639027, "COREID": 126, "Selected": 0.0, "Time": 18.66 }, "geometry": { "type": "Point", "coordinates": [ -2.598293675605523, 51.43772401698061 ] } },
{ "type": "Feature", "properties": { "fid": 127, "FID_": 126, "NAME": "Marsh Road / Winterstoke Road", "X_coord": 356813.67651299998, "Y_coord": 171387.02278100001, "COREID": 127, "Selected": 0.0, "Time": 13.22 }, "geometry": { "type": "Point", "coordinates": [ -2.622723471096398, 51.439821138243559 ] } },
{ "type": "Feature", "properties": { "fid": 128, "FID_": 127, "NAME": "Winterstoke Road / South Liberty Lane", "X_coord": 357324.38643999997, "Y_coord": 170617.02514499999, "COREID": 128, "Selected": 0.0, "Time": null }, "geometry": { "type": "Point", "coordinates": [ -2.615283146062068, 51.432936868931293 ] } },
{ "type": "Feature", "properties": { "fid": 129, "FID_": 128, "NAME": "Liberty Industrial Park", "X_coord": 357116.79948699998, "Y_coord": 170440.88550900001, "COREID": 129, "Selected": 0.0, "Time": null }, "geometry": { "type": "Point", "coordinates": [ -2.618247735973943, 51.431337473230634 ] } },
{ "type": "Feature", "properties": { "fid": 130, "FID_": 129, "NAME": "Cater Road", "X_coord": 357695.76909299998, "Y_coord": 168657.42812900001, "COREID": 130, "Selected": 0.0, "Time": null }, "geometry": { "type": "Point", "coordinates": [ -2.6097064848156, 51.415345921492772 ] } },
{ "type": "Feature", "properties": { "fid": 131, "FID_": 130, "NAME": "Whitchurch Lane", "X_coord": 359677.725408, "Y_coord": 168029.03277600001, "COREID": 131, "Selected": 0.0, "Time": null }, "geometry": { "type": "Point", "coordinates": [ -2.581136710012331, 51.409840769321313 ] } },
{ "type": "Feature", "properties": { "fid": 132, "FID_": 131, "NAME": "Lawrence Hill Industrial Park", "X_coord": 360727.54792400001, "Y_coord": 173605.33656600001, "COREID": 132, "Selected": 0.0, "Time": 17.61 }, "geometry": { "type": "Point", "coordinates": [ -2.566663592465417, 51.460051904586621 ] } },
{ "type": "Feature", "properties": { "fid": 133, "FID_": 132, "NAME": "Barrow Road", "X_coord": 360565.35683100001, "Y_coord": 173026.07520799999, "COREID": 133, "Selected": 0.0, "Time": 19.73 }, "geometry": { "type": "Point", "coordinates": [ -2.568933203862694, 51.454832406571434 ] } },
{ "type": "Feature", "properties": { "fid": 134, "FID_": 133, "NAME": "Jarvis Street", "X_coord": 360697.835831, "Y_coord": 172820.96764700001, "COREID": 134, "Selected": 0.0, "Time": 20.42 }, "geometry": { "type": "Point", "coordinates": [ -2.56700381144564, 51.452997504901333 ] } },
{ "type": "Feature", "properties": { "fid": 135, "FID_": 134, "NAME": "Barton Hill Trading Estate", "X_coord": 360968.50689800002, "Y_coord": 172723.60147299999, "COREID": 135, "Selected": 0.0, "Time": 20.33 }, "geometry": { "type": "Point", "coordinates": [ -2.563097901611708, 51.452140855853678 ] } },
{ "type": "Feature", "properties": { "fid": 136, "FID_": 135, "NAME": "St Philip's Marsh", "X_coord": 360521.61748900003, "Y_coord": 172160.62201200001, "COREID": 136, "Selected": 0.0, "Time": null }, "geometry": { "type": "Point", "coordinates": [ -2.569465805674301, 51.447047977745491 ] } },
{ "type": "Feature", "properties": { "fid": 137, "FID_": 136, "NAME": "Temple Gate Distribution Centre", "X_coord": 359604.81850200001, "Y_coord": 171996.24459, "COREID": 137, "Selected": 0.0, "Time": 19.44 }, "geometry": { "type": "Point", "coordinates": [ -2.582638576307598, 51.445505203216989 ] } },
{ "type": "Feature", "properties": { "fid": 138, "FID_": 137, "NAME": "Clift House Road / Coronation Road", "X_coord": 357203.44111999997, "Y_coord": 171958.86818, "COREID": 138, "Selected": 0.0, "Time": null }, "geometry": { "type": "Point", "coordinates": [ -2.617185500902338, 51.444992279772997 ] } },
{ "type": "Feature", "properties": { "fid": 139, "FID_": 138, "NAME": "Berkeley Court and Depot, Earl Russell Way", "X_coord": 360823.519317, "Y_coord": 173477.431729, "COREID": 139, "Selected": 0.0, "Time": 16.44 }, "geometry": { "type": "Point", "coordinates": [ -2.565268075666649, 51.458908571243988 ] } },
{ "type": "Feature", "properties": { "fid": 140, "FID_": 139, "NAME": "Vale Lane / Hartcliffe Way", "X_coord": 357977.16889299999, "Y_coord": 170038.99149, "COREID": 140, "Selected": 0.0, "Time": null }, "geometry": { "type": "Point", "coordinates": [ -2.605824596671552, 51.42778865600107 ] } },
{ "type": "Feature", "properties": { "fid": 141, "FID_": 140, "NAME": "Central Park, Petherton Road", "X_coord": 360525.82902399998, "Y_coord": 169451.70960199999, "COREID": 141, "Selected": 0.0, "Time": null }, "geometry": { "type": "Point", "coordinates": [ -2.569102340516223, 51.422692116475993 ] } },
{ "type": "Feature", "properties": { "fid": 142, "FID_": 141, "NAME": "Hawkfield Business Park", "X_coord": 358838.12983799999, "Y_coord": 168180.41568800001, "COREID": 142, "Selected": 0.0, "Time": null }, "geometry": { "type": "Point", "coordinates": [ -2.593225229139428, 51.411141373973564 ] } },
{ "type": "Feature", "properties": { "fid": 143, "FID_": 142, "NAME": "Western Drive, Hengrove Way", "X_coord": 359454.02036999998, "Y_coord": 168995.83929900001, "COREID": 143, "Selected": 0.0, "Time": null }, "geometry": { "type": "Point", "coordinates": [ -2.584463816520119, 51.418517452594017 ] } },
{ "type": "Feature", "properties": { "fid": 144, "FID_": 143, "NAME": "Clift House Road / Coronation Road", "X_coord": 356977.25311500003, "Y_coord": 171939.30389800001, "COREID": 144, "Selected": 0.0, "Time": 18.83 }, "geometry": { "type": "Point", "coordinates": [ -2.620437508249673, 51.444799192789979 ] } },
{ "type": "Feature", "properties": { "fid": 145, "FID_": 0, "NAME": "Parkway North Business Park", "X_coord": 363117.91752900003, "Y_coord": 179971.96754300001, "COREID": 145, "Selected": 0.0, "Time": null }, "geometry": { "type": "Point", "coordinates": [ -2.532926433792309, 51.517456161428662 ] } },
{ "type": "Feature", "properties": { "fid": 146, "FID_": 1, "NAME": "North of Douglas Road", "X_coord": 364792.43650900002, "Y_coord": 173459.87296899999, "COREID": 146, "Selected": 0.0, "Time": null }, "geometry": { "type": "Point", "coordinates": [ -2.508143191366749, 51.459012287798103 ] } },
{ "type": "Feature", "properties": { "fid": 147, "FID_": 2, "NAME": "Southway Drive, North Common", "X_coord": 367807.91651200003, "Y_coord": 172474.12702399999, "COREID": 147, "Selected": 0.0, "Time": null }, "geometry": { "type": "Point", "coordinates": [ -2.464652082080931, 51.450329358140884 ] } },
{ "type": "Feature", "properties": { "fid": 148, "FID_": 3, "NAME": "Station Road, Kingswood", "X_coord": 366079.29880799999, "Y_coord": 175168.29330700001, "COREID": 148, "Selected": 0.0, "Time": null }, "geometry": { "type": "Point", "coordinates": [ -2.489786267626879, 51.474451855290859 ] } },
{ "type": "Feature", "properties": { "fid": 149, "FID_": 4, "NAME": "Former Kleeneze site", "X_coord": 364059.47271399997, "Y_coord": 172258.351199, "COREID": 149, "Selected": 0.0, "Time": null }, "geometry": { "type": "Point", "coordinates": [ -2.518570014710982, 51.44816299138283 ] } },
{ "type": "Feature", "properties": { "fid": 150, "FID_": 5, "NAME": "Beeches Industrial Estate, Yate", "X_coord": 369653.97262800002, "Y_coord": 182905.733813, "COREID": 150, "Selected": 0.0, "Time": null }, "geometry": { "type": "Point", "coordinates": [ -2.438987795576874, 51.544224387298222 ] } },
{ "type": "Feature", "properties": { "fid": 151, "FID_": 6, "NAME": "Broad Lane, Yate", "X_coord": 370228.97351500002, "Y_coord": 183732.946065, "COREID": 151, "Selected": 0.0, "Time": null }, "geometry": { "type": "Point", "coordinates": [ -2.430766727887061, 51.551692709308632 ] } },
{ "type": "Feature", "properties": { "fid": 152, "FID_": 7, "NAME": "The Ridge, Yate", "X_coord": 372318.48145899997, "Y_coord": 183051.76521899999, "COREID": 152, "Selected": 0.0, "Time": null }, "geometry": { "type": "Point", "coordinates": [ -2.400577784117657, 51.545674917758383 ] } },
{ "type": "Feature", "properties": { "fid": 153, "FID_": 8, "NAME": "Council Offices, Thornbury", "X_coord": 363510.14314599999, "Y_coord": 190346.70403699999, "COREID": 153, "Selected": 0.0, "Time": null }, "geometry": { "type": "Point", "coordinates": [ -2.528354572730634, 51.610760790595513 ] } },
{ "type": "Feature", "properties": { "fid": 154, "FID_": 9, "NAME": "Badminton Court / Dairy Crest site", "X_coord": 370243.481149, "Y_coord": 182633.97289800001, "COREID": 154, "Selected": 0.0, "Time": null }, "geometry": { "type": "Point", "coordinates": [ -2.430464187998809, 51.541812459042326 ] } },
{ "type": "Feature", "properties": { "fid": 155, "FID_": 10, "NAME": "Hatters Lane", "X_coord": 373046.32688499999, "Y_coord": 182339.526943, "COREID": 155, "Selected": 0.0, "Time": null }, "geometry": { "type": "Point", "coordinates": [ -2.390027296105537, 51.539306432575046 ] } },
{ "type": "Feature", "properties": { "fid": 156, "FID_": 11, "NAME": "Minelco Site / Yate Mills, Broad Lane", "X_coord": 371044.22771399998, "Y_coord": 183889.002473, "COREID": 156, "Selected": 0.0, "Time": null }, "geometry": { "type": "Point", "coordinates": [ -2.419021961537033, 51.553138432771362 ] } },
{ "type": "Feature", "properties": { "fid": 157, "FID_": 12, "NAME": "The Civic Centre, Kingswood", "X_coord": 365275.386069, "Y_coord": 173864.35430199999, "COREID": 157, "Selected": 0.0, "Time": null }, "geometry": { "type": "Point", "coordinates": [ -2.501232103610096, 51.462678983963684 ] } },
{ "type": "Feature", "properties": { "fid": 158, "FID_": 13, "NAME": "Almondsbury Business Park", "X_coord": 361362.078569, "Y_coord": 183296.75830700001, "COREID": 158, "Selected": 0.0, "Time": null }, "geometry": { "type": "Point", "coordinates": [ -2.558595727602337, 51.547231575960012 ] } },
{ "type": "Feature", "properties": { "fid": 159, "FID_": 14, "NAME": "Eclipse Office Park", "X_coord": 364433.13787699997, "Y_coord": 175897.877871, "COREID": 159, "Selected": 0.0, "Time": null }, "geometry": { "type": "Point", "coordinates": [ -2.513560631284026, 51.480910216077021 ] } },
{ "type": "Feature", "properties": { "fid": 160, "FID_": 15, "NAME": "McBraida site", "X_coord": 367862.92609700002, "Y_coord": 172997.52181800001, "COREID": 160, "Selected": 0.0, "Time": null }, "geometry": { "type": "Point", "coordinates": [ -2.463908213230249, 51.455038463248208 ] } },
{ "type": "Feature", "properties": { "fid": 161, "FID_": 16, "NAME": "Longwell Green Industrial Estate", "X_coord": 365495.22406799998, "Y_coord": 171712.604333, "COREID": 161, "Selected": 0.0, "Time": null }, "geometry": { "type": "Point", "coordinates": [ -2.497857191031046, 51.443345668445332 ] } },
{ "type": "Feature", "properties": { "fid": 162, "FID_": 17, "NAME": "Hanham Business Park", "X_coord": 363712.06725399999, "Y_coord": 172023.89985700001, "COREID": 162, "Selected": 0.0, "Time": null }, "geometry": { "type": "Point", "coordinates": [ -2.523544794111894, 51.446032772355217 ] } },
{ "type": "Feature", "properties": { "fid": 163, "FID_": 18, "NAME": "Bath Road, Willsbridge", "X_coord": 367144.76987199998, "Y_coord": 170085.52271, "COREID": 163, "Selected": 0.0, "Time": null }, "geometry": { "type": "Point", "coordinates": [ -2.473972313672979, 51.428814596076791 ] } },
{ "type": "Feature", "properties": { "fid": 164, "FID_": 19, "NAME": "Hayward Industrial Estate", "X_coord": 364739.429061, "Y_coord": 175461.274378, "COREID": 164, "Selected": 0.0, "Time": null }, "geometry": { "type": "Point", "coordinates": [ -2.509106441164135, 51.477003893007904 ] } },
{ "type": "Feature", "properties": { "fid": 165, "FID_": 20, "NAME": "2-8 London Road, Warmley", "X_coord": 367218.42487599998, "Y_coord": 173408.09504700001, "COREID": 165, "Selected": 0.0, "Time": null }, "geometry": { "type": "Point", "coordinates": [ -2.473221750760673, 51.458692933817382 ] } },
{ "type": "Feature", "properties": { "fid": 166, "FID_": 21, "NAME": "Aztec West", "X_coord": 360266.87504700001, "Y_coord": 182697.75541300001, "COREID": 166, "Selected": 0.0, "Time": null }, "geometry": { "type": "Point", "coordinates": [ -2.574321106737719, 51.541769694657766 ] } },
{ "type": "Feature", "properties": { "fid": 167, "FID_": 22, "NAME": "Bowling Hill, Chipping Sodbury", "X_coord": 372212.34762299998, "Y_coord": 182396.49994899999, "COREID": 167, "Selected": 0.0, "Time": null }, "geometry": { "type": "Point", "coordinates": [ -2.402056300054943, 51.539778074323259 ] } },
{ "type": "Feature", "properties": { "fid": 168, "FID_": 23, "NAME": "Council Offices, Badminton Road, Yate", "X_coord": 369635.85490699997, "Y_coord": 182538.592936, "COREID": 168, "Selected": 0.0, "Time": null }, "geometry": { "type": "Point", "coordinates": [ -2.43921724849781, 51.540922396465355 ] } },
{ "type": "Feature", "properties": { "fid": 169, "FID_": 24, "NAME": "Great Western Business Park, Yate", "X_coord": 369939.24837699998, "Y_coord": 183222.21050099999, "COREID": 169, "Selected": 0.0, "Time": null }, "geometry": { "type": "Point", "coordinates": [ -2.434901348527964, 51.547085198241575 ] } },
{ "type": "Feature", "properties": { "fid": 170, "FID_": 25, "NAME": "Indesit Site, Station Road", "X_coord": 370395.42421000003, "Y_coord": 182635.94609099999, "COREID": 170, "Selected": 0.0, "Time": null }, "geometry": { "type": "Point", "coordinates": [ -2.428273495529409, 51.541838222132192 ] } },
{ "type": "Feature", "properties": { "fid": 171, "FID_": 26, "NAME": "Westerleigh Business Park", "X_coord": 369640.487165, "Y_coord": 182012.55666900001, "COREID": 171, "Selected": 0.0, "Time": null }, "geometry": { "type": "Point", "coordinates": [ -2.439104913742719, 51.536192981077619 ] } },
{ "type": "Feature", "properties": { "fid": 172, "FID_": 27, "NAME": "Thornbury Industrial Estate", "X_coord": 364019.867218, "Y_coord": 189436.81010900001, "COREID": 172, "Selected": 0.0, "Time": null }, "geometry": { "type": "Point", "coordinates": [ -2.520900184024628, 51.602612912212791 ] } },
{ "type": "Feature", "properties": { "fid": 173, "FID_": 28, "NAME": "Arnolds Fields Trading Estate, Wickwar", "X_coord": 372250.51542900002, "Y_coord": 188532.76822599999, "COREID": 173, "Selected": 0.0, "Time": null }, "geometry": { "type": "Point", "coordinates": [ -2.40199256456978, 51.594951996760045 ] } },
{ "type": "Feature", "properties": { "fid": 174, "FID_": 29, "NAME": "Bristol Business Park", "X_coord": 362474.34298100002, "Y_coord": 178314.29240199999, "COREID": 174, "Selected": 0.0, "Time": null }, "geometry": { "type": "Point", "coordinates": [ -2.542024021758428, 51.502509409775499 ] } },
{ "type": "Feature", "properties": { "fid": 175, "FID_": 30, "NAME": "Old Cider Mill Trading Estate", "X_coord": 372565.53036600002, "Y_coord": 189024.62841899999, "COREID": 175, "Selected": 0.0, "Time": null }, "geometry": { "type": "Point", "coordinates": [ -2.397483692815538, 51.59938985419209 ] } },
{ "type": "Feature", "properties": { "fid": 176, "FID_": 31, "NAME": "Pucklechurch Trading Estate", "X_coord": 369803.905807, "Y_coord": 175929.39356699999, "COREID": 176, "Selected": 0.0, "Time": null }, "geometry": { "type": "Point", "coordinates": [ -2.436225926160708, 51.481506912952426 ] } },
{ "type": "Feature", "properties": { "fid": 177, "FID_": 32, "NAME": "Station Premises and Yard, Winterbourne", "X_coord": 365312.37819100003, "Y_coord": 179938.28744099999, "COREID": 177, "Selected": 0.0, "Time": null }, "geometry": { "type": "Point", "coordinates": [ -2.50129852777181, 51.51729281158412 ] } },
{ "type": "Feature", "properties": { "fid": 178, "FID_": 33, "NAME": "Station Road, Charfield", "X_coord": 372428.08869300003, "Y_coord": 192263.63932799999, "COREID": 178, "Selected": 0.0, "Time": null }, "geometry": { "type": "Point", "coordinates": [ -2.399723860736984, 51.628505284522589 ] } },
{ "type": "Feature", "properties": { "fid": 179, "FID_": 34, "NAME": "Sunguard Vivista Premises, Marshfield", "X_coord": 378154.64005, "Y_coord": 173880.390488, "COREID": 179, "Selected": 0.0, "Time": null }, "geometry": { "type": "Point", "coordinates": [ -2.315847351984685, 51.463469467236678 ] } },
{ "type": "Feature", "properties": { "fid": 180, "FID_": 35, "NAME": "Pearce/ Auto Techniques site", "X_coord": 362963.77658599999, "Y_coord": 179638.11332199999, "COREID": 180, "Selected": 0.0, "Time": null }, "geometry": { "type": "Point", "coordinates": [ -2.535112572192403, 51.514444345697548 ] } },
{ "type": "Feature", "properties": { "fid": 181, "FID_": 36, "NAME": "University of the West of England", "X_coord": 361671.24011399999, "Y_coord": 178120.873273, "COREID": 181, "Selected": 0.0, "Time": null }, "geometry": { "type": "Point", "coordinates": [ -2.553572664148294, 51.500716311566713 ] } },
{ "type": "Feature", "properties": { "fid": 182, "FID_": 37, "NAME": "Coopers Site", "X_coord": 370735.002094, "Y_coord": 181985.225038, "COREID": 182, "Selected": 0.0, "Time": null }, "geometry": { "type": "Point", "coordinates": [ -2.423322817371894, 51.536005266639748 ] } },
{ "type": "Feature", "properties": { "fid": 183, "FID_": 38, "NAME": "Stover Road and North Road Industrial Estates", "X_coord": 369910.13959099998, "Y_coord": 182734.490158, "COREID": 183, "Selected": 0.0, "Time": null }, "geometry": { "type": "Point", "coordinates": [ -2.435279246592913, 51.542698481610998 ] } },
{ "type": "Feature", "properties": { "fid": 184, "FID_": 39, "NAME": "Badminton Road Trading Estate", "X_coord": 369864.59305999998, "Y_coord": 182320.66497000001, "COREID": 184, "Selected": 0.0, "Time": null }, "geometry": { "type": "Point", "coordinates": [ -2.435900421893622, 51.538975281847812 ] } },
{ "type": "Feature", "properties": { "fid": 185, "FID_": 40, "NAME": "Ministry of Defence - Abbey Wood", "X_coord": 361293.68026400002, "Y_coord": 178369.83644300001, "COREID": 185, "Selected": 0.0, "Time": null }, "geometry": { "type": "Point", "coordinates": [ -2.559039077106786, 51.502928940186074 ] } },
{ "type": "Feature", "properties": { "fid": 186, "FID_": 41, "NAME": "Old Gloucester Road, Hambrook", "X_coord": 363465.223321, "Y_coord": 180540.15436099999, "COREID": 186, "Selected": 0.0, "Time": null }, "geometry": { "type": "Point", "coordinates": [ -2.52798049247547, 51.522587398910431 ] } },
{ "type": "Feature", "properties": { "fid": 187, "FID_": 42, "NAME": "Abbey Wood Business Park -  Emma Chris Way", "X_coord": 361051.95025300002, "Y_coord": 178794.33159700001, "COREID": 187, "Selected": 0.0, "Time": null }, "geometry": { "type": "Point", "coordinates": [ -2.562568550962943, 51.506728928854571 ] } },
{ "type": "Feature", "properties": { "fid": 188, "FID_": 43, "NAME": "Parkway Business Park", "X_coord": 361953.99842100003, "Y_coord": 179144.40238099999, "COREID": 188, "Selected": 0.0, "Time": null }, "geometry": { "type": "Point", "coordinates": [ -2.549610083704231, 51.509938066054723 ] } },
{ "type": "Feature", "properties": { "fid": 189, "FID_": 44, "NAME": "Chapel Lane, Warmley", "X_coord": 366965.661937, "Y_coord": 173705.075224, "COREID": 189, "Selected": 0.0, "Time": null }, "geometry": { "type": "Point", "coordinates": [ -2.476887521780842, 51.461348399633515 ] } },
{ "type": "Feature", "properties": { "fid": 190, "FID_": 45, "NAME": "Tower Road, Warmley", "X_coord": 367146.51656000002, "Y_coord": 173007.44550900001, "COREID": 190, "Selected": 0.0, "Time": null }, "geometry": { "type": "Point", "coordinates": [ -2.474219351785596, 51.455086421315599 ] } },
{ "type": "Feature", "properties": { "fid": 191, "FID_": 46, "NAME": "Bristol Uniforms site", "X_coord": 364993.746316, "Y_coord": 176010.63576500001, "COREID": 191, "Selected": 0.0, "Time": null }, "geometry": { "type": "Point", "coordinates": [ -2.505499322532688, 51.4819591280148 ] } },
{ "type": "Feature", "properties": { "fid": 192, "FID_": 47, "NAME": "Oatley Trading Estate, Kingswood", "X_coord": 364536.30870300002, "Y_coord": 174257.08665300001, "COREID": 192, "Selected": 0.0, "Time": null }, "geometry": { "type": "Point", "coordinates": [ -2.511909785599571, 51.466164123873 ] } }
]
}
